stop_id,stop_code,stop_name,stop_lat,stop_lon,stop_url
27,11210,"JPA at Maury Avenue",38.026126,-78.514559,http://avlweb.charlottesville.org/RTT/Public/RoutePositionET.aspx?PlatformTag=27
28,11688,"Jefferson Prk Ave & Observatory Ave",38.026355,-78.513288,http://avlweb.charlottesville.org/RTT/Public/RoutePositionET.aspx?PlatformTag=28
29,11206,"JPA at Observatory Avenue",38.026523,-78.513392,http://avlweb.charlottesville.org/RTT/Public/RoutePositionET.aspx?PlatformTag=29
30,11473,"Jefferson Prk Ave & Shamrock Rd",38.027556,-78.511319,http://avlweb.charlottesville.org/RTT/Public/RoutePositionET.aspx?PlatformTag=30
31,11172,"JPA at Shamrock Road",38.027631,-78.511588,http://avlweb.charlottesville.org/RTT/Public/RoutePositionET.aspx?PlatformTag=31
32,11487,"JPA & Kent Terrace",38.028642,-78.509653,http://avlweb.charlottesville.org/RTT/Public/RoutePositionET.aspx?PlatformTag=32
33,11164,"JPA at Montebello Circle",38.028819,-78.509810,http://avlweb.charlottesville.org/RTT/Public/RoutePositionET.aspx?PlatformTag=33
34,11140,"JPA opposite Valley Road",38.031019,-78.508358,http://avlweb.charlottesville.org/RTT/Public/RoutePositionET.aspx?PlatformTag=34
35,11769,"Engineering School (inbound)",38.031685,-78.511328,http://avlweb.charlottesville.org/RTT/Public/RoutePositionET.aspx?PlatformTag=35
36,11603,"Engineering School (outbound)",38.031508,-78.511248,http://avlweb.charlottesville.org/RTT/Public/RoutePositionET.aspx?PlatformTag=36
37,10687,"Alderman Road opposite Gooch Houses",38.029072,-78.516357,http://avlweb.charlottesville.org/RTT/Public/RoutePositionET.aspx?PlatformTag=37
38,11619,"Alderman Rd & Gooch (outbound)",38.029348,-78.516424,http://avlweb.charlottesville.org/RTT/Public/RoutePositionET.aspx?PlatformTag=38
39,11635,"Stadium Rd & Runk",38.028602,-78.518265,http://avlweb.charlottesville.org/RTT/Public/RoutePositionET.aspx?PlatformTag=39
40,11867,"Appletree Rd & Stadium Rd",38.028415,-78.519847,http://avlweb.charlottesville.org/RTT/Public/RoutePositionET.aspx?PlatformTag=40
41,11657,"Stadium Rd & Mimosa Dr",38.028179,-78.520314,http://avlweb.charlottesville.org/RTT/Public/RoutePositionET.aspx?PlatformTag=41
42,11661,"Mimosa Dr (outbound)",38.027179,-78.520824,http://avlweb.charlottesville.org/RTT/Public/RoutePositionET.aspx?PlatformTag=42
43,11851,"Mimosa Dr (inbound)",38.027056,-78.520834,http://avlweb.charlottesville.org/RTT/Public/RoutePositionET.aspx?PlatformTag=43
45,11880,"Scott Stadium (outbound)",38.029672,-78.514814,http://avlweb.charlottesville.org/RTT/Public/RoutePositionET.aspx?PlatformTag=45
46,11879,"Scott Stadium (inbound)",38.029508,-78.514973,http://avlweb.charlottesville.org/RTT/Public/RoutePositionET.aspx?PlatformTag=46
47,11234,"Alderman Road at Whitehead Road",38.033825,-78.514094,http://avlweb.charlottesville.org/RTT/Public/RoutePositionET.aspx?PlatformTag=47
48,11592,"Alderman Rd & Tuttle",38.033980,-78.514261,http://avlweb.charlottesville.org/RTT/Public/RoutePositionET.aspx?PlatformTag=48
50,11931,"McCormick Road at Gilmer Hall",38.034809,-78.513184,http://avlweb.charlottesville.org/RTT/Public/RoutePositionET.aspx?PlatformTag=50
51,11795,"McCormick Rd Dorms",38.034400,-78.511814,http://avlweb.charlottesville.org/RTT/Public/RoutePositionET.aspx?PlatformTag=51
52,11782,"McCormick Road at Chemistry Building",38.034176,-78.511684,http://avlweb.charlottesville.org/RTT/Public/RoutePositionET.aspx?PlatformTag=52
53,11898,"McCormick Road at Thornton Hall",38.033683,-78.509262,http://avlweb.charlottesville.org/RTT/Public/RoutePositionET.aspx?PlatformTag=53
54,11920,"McCormick Road at Clark Hall",38.033732,-78.507379,http://avlweb.charlottesville.org/RTT/Public/RoutePositionET.aspx?PlatformTag=54
55,11814,"Commerce School",38.034327,-78.506245,http://avlweb.charlottesville.org/RTT/Public/RoutePositionET.aspx?PlatformTag=55
56,11912,"Alderman Library",38.035512,-78.505339,http://avlweb.charlottesville.org/RTT/Public/RoutePositionET.aspx?PlatformTag=56
57,11908,"McCormick Road at UVA Chapel",38.036177,-78.504695,http://avlweb.charlottesville.org/RTT/Public/RoutePositionET.aspx?PlatformTag=57
63,11711,"14th Street NW at Wertland (northbound)",38.034540,-78.499283,http://avlweb.charlottesville.org/RTT/Public/RoutePositionET.aspx?PlatformTag=63
64,11724,"14th Street NW at Wertland (southbound)",38.034571,-78.499377,http://avlweb.charlottesville.org/RTT/Public/RoutePositionET.aspx?PlatformTag=64
65,11155,"JPA at Cabell Hall",38.032110,-78.505489,http://avlweb.charlottesville.org/RTT/Public/RoutePositionET.aspx?PlatformTag=65
66,11690,"JPA & Brandon Ave",38.031987,-78.503272,http://avlweb.charlottesville.org/RTT/Public/RoutePositionET.aspx?PlatformTag=66
67,11707,"Jordan Hall",38.032322,-78.500748,http://avlweb.charlottesville.org/RTT/Public/RoutePositionET.aspx?PlatformTag=67
275,14339,"Preston Avenue at 10th Street NW",38.039592,-78.491634,http://avlweb.charlottesville.org/RTT/Public/RoutePositionET.aspx?PlatformTag=275
277,11833,"Preston Avenue at Madison Avenue (southbound)",38.041475,-78.492237,http://avlweb.charlottesville.org/RTT/Public/RoutePositionET.aspx?PlatformTag=277
278,11753,"Madison Ave & Preston Ave",38.041783,-78.493100,http://avlweb.charlottesville.org/RTT/Public/RoutePositionET.aspx?PlatformTag=278
280,11730,"14th Street NW at John Street",38.037284,-78.497828,http://avlweb.charlottesville.org/RTT/Public/RoutePositionET.aspx?PlatformTag=280
281,11822,"14th Street NW at Virginia Avenue",38.037573,-78.497789,http://avlweb.charlottesville.org/RTT/Public/RoutePositionET.aspx?PlatformTag=281
282,16343,"University Avenue at Carr's Hill Field",38.039364,-78.505949,http://avlweb.charlottesville.org/RTT/Public/RoutePositionET.aspx?PlatformTag=282
283,16358,"University Ave at Snyder Tennis Courts",38.038689,-78.505740,http://avlweb.charlottesville.org/RTT/Public/RoutePositionET.aspx?PlatformTag=283
284,12262,"Beta Bridge (outbound)",38.039639,-78.501702,http://avlweb.charlottesville.org/RTT/Public/RoutePositionET.aspx?PlatformTag=284
285,12270,"Grady Ave & Rugby Rd  ",38.041621,-78.500463,http://avlweb.charlottesville.org/RTT/Public/RoutePositionET.aspx?PlatformTag=285
286,12289,"Grady Ave & 16th St",38.040792,-78.498137,http://avlweb.charlottesville.org/RTT/Public/RoutePositionET.aspx?PlatformTag=286
287,12291,"Grady Ave & Preston Pl",38.041093,-78.498633,http://avlweb.charlottesville.org/RTT/Public/RoutePositionET.aspx?PlatformTag=287
288,11748,"Madison Ave & Grady Ave",38.040457,-78.495990,http://avlweb.charlottesville.org/RTT/Public/RoutePositionET.aspx?PlatformTag=288
290,11954,"Foods of All Nations",38.043005,-78.512092,http://avlweb.charlottesville.org/RTT/Public/RoutePositionET.aspx?PlatformTag=290
291,12236,"Alderman Rd & Facillities (inbound)",38.036351,-78.514389,http://avlweb.charlottesville.org/RTT/Public/RoutePositionET.aspx?PlatformTag=291
292,12150,"Massie Rd & Nth Emmet St",38.044747,-78.506233,http://avlweb.charlottesville.org/RTT/Public/RoutePositionET.aspx?PlatformTag=292
293,12338,"Copeley Rd & Massie Rd(outbound)",38.046948,-78.509227,http://avlweb.charlottesville.org/RTT/Public/RoutePositionET.aspx?PlatformTag=293
294,12329,"Copeley Rd & Massie Rd(inbound)",38.046833,-78.509446,http://avlweb.charlottesville.org/RTT/Public/RoutePositionET.aspx?PlatformTag=294
295,12166,"Arlington Blvd & Massie Rd",38.050419,-78.507756,http://avlweb.charlottesville.org/RTT/Public/RoutePositionET.aspx?PlatformTag=295
296,12121,"Arlington Blvd & Arlington Ct",38.050860,-78.508067,http://avlweb.charlottesville.org/RTT/Public/RoutePositionET.aspx?PlatformTag=296
297,12132,"Copeley Student Housing",38.051919,-78.509742,http://avlweb.charlottesville.org/RTT/Public/RoutePositionET.aspx?PlatformTag=297
298,12145,"Law School",38.051988,-78.510252,http://avlweb.charlottesville.org/RTT/Public/RoutePositionET.aspx?PlatformTag=298
299,11996,"Darden & North Grounds Rec",38.051671,-78.512659,http://avlweb.charlottesville.org/RTT/Public/RoutePositionET.aspx?PlatformTag=299
373,12006,"Copeley Time Stop",38.050328,-78.510596,http://avlweb.charlottesville.org/RTT/Public/RoutePositionET.aspx?PlatformTag=373
377,11846,"JPA at Woodrow St",38.031267,-78.508190,http://avlweb.charlottesville.org/RTT/Public/RoutePositionET.aspx?PlatformTag=377
385,12204,"McDonalds",38.048463,-78.504652,http://avlweb.charlottesville.org/RTT/Public/RoutePositionET.aspx?PlatformTag=385
410,11193,"JPA at UVA Hospital",38.032500,-78.500600,http://avlweb.charlottesville.org/RTT/Public/RoutePositionET.aspx?PlatformTag=410
412,11802,"McCormick Road at Garrett Hall",38.034325,-78.506016,http://avlweb.charlottesville.org/RTT/Public/RoutePositionET.aspx?PlatformTag=412
415,10417,"Grady Avenue at 14th Street",38.040120,-78.496051,http://avlweb.charlottesville.org/RTT/Public/RoutePositionET.aspx?PlatformTag=415
416,12258,"University Heights & Ivy",38.044473,-78.516253,http://avlweb.charlottesville.org/RTT/Public/RoutePositionET.aspx?PlatformTag=416
417,12243,"University Heights",38.042870,-78.517600,http://avlweb.charlottesville.org/RTT/Public/RoutePositionET.aspx?PlatformTag=417
418,,"University Heights",38.042821,-78.518148,http://avlweb.charlottesville.org/RTT/Public/RoutePositionET.aspx?PlatformTag=418
421,16389,"Emmet Street North at Lambeth (northbound)",38.042479,-78.505846,http://avlweb.charlottesville.org/RTT/Public/RoutePositionET.aspx?PlatformTag=421
422,10641,"Bryant Hall (inbound)",38.030262,-78.512587,http://avlweb.charlottesville.org/RTT/Public/RoutePositionET.aspx?PlatformTag=422
423,16861,"Bryant Hall (outbound)",38.030389,-78.512738,http://avlweb.charlottesville.org/RTT/Public/RoutePositionET.aspx?PlatformTag=423
424,12215,"U-Hall",38.045123,-78.509239,http://avlweb.charlottesville.org/RTT/Public/RoutePositionET.aspx?PlatformTag=424
425,16826,"U-Hall (South)",38.044446,-78.510578,http://avlweb.charlottesville.org/RTT/Public/RoutePositionET.aspx?PlatformTag=425
426,16717,"Emmet & Ivy Garage",38.041400,-78.507650,http://avlweb.charlottesville.org/RTT/Public/RoutePositionET.aspx?PlatformTag=426
427,16701,"UVA Hospital on Lee Street",38.031727,-78.498143,http://avlweb.charlottesville.org/RTT/Public/RoutePositionET.aspx?PlatformTag=427
428,16698,"Lane Rd",38.031560,-78.501450,http://avlweb.charlottesville.org/RTT/Public/RoutePositionET.aspx?PlatformTag=428
429,16842,"U-Hall (CG)",38.045503,-78.509658,http://avlweb.charlottesville.org/RTT/Public/RoutePositionET.aspx?PlatformTag=429
431,10354,"Faulkner Housing/Miller Center (outbound)",38.048025,-78.511978,http://avlweb.charlottesville.org/RTT/Public/RoutePositionET.aspx?PlatformTag=431
443,16857,"UHall & Massie Rd",38.045831,-78.508770,http://avlweb.charlottesville.org/RTT/Public/RoutePositionET.aspx?PlatformTag=443
445,10543,"Washington Park",38.039089,-78.491316,http://avlweb.charlottesville.org/RTT/Public/RoutePositionET.aspx?PlatformTag=445
446,16786,"Stadium Ramp",38.029369,-78.514012,http://avlweb.charlottesville.org/RTT/Public/RoutePositionET.aspx?PlatformTag=446
448,10656,"Grady Avenue at 10 ½ Street NW (westbound)",38.038794,-78.492403,http://avlweb.charlottesville.org/RTT/Public/RoutePositionET.aspx?PlatformTag=448
450,10504,"Beta Bridge(inbound)",38.039615,-78.501893,http://avlweb.charlottesville.org/RTT/Public/RoutePositionET.aspx?PlatformTag=450
453,10396,"McCormick Rd(night stop)",38.033759,-78.509377,http://avlweb.charlottesville.org/RTT/Public/RoutePositionET.aspx?PlatformTag=453
454,15096,"JPA & Valley Rd",38.031037,-78.508040,http://avlweb.charlottesville.org/RTT/Public/RoutePositionET.aspx?PlatformTag=454
455,11949,"Emmet & Ivy Garage (outbound)",38.041400,-78.509300,http://avlweb.charlottesville.org/RTT/Public/RoutePositionET.aspx?PlatformTag=455
456,10493,"Copeley Rd & Seymour Rd(inbound)",38.048100,-78.508146,http://avlweb.charlottesville.org/RTT/Public/RoutePositionET.aspx?PlatformTag=456
457,12301,"Copeley Rd & Seymour Rd (outbound)",38.048298,-78.507962,http://avlweb.charlottesville.org/RTT/Public/RoutePositionET.aspx?PlatformTag=457
458,12317,"Copeley Rd (outbound)",38.049446,-78.508128,http://avlweb.charlottesville.org/RTT/Public/RoutePositionET.aspx?PlatformTag=458
459,12109,"Copeley Rd(inbound)",38.049334,-78.508232,http://avlweb.charlottesville.org/RTT/Public/RoutePositionET.aspx?PlatformTag=459
461,11983,"Faulkner Housing/Miller Center (inbound)",38.048097,-78.512173,http://avlweb.charlottesville.org/RTT/Public/RoutePositionET.aspx?PlatformTag=461
462,10429,"Upper Darden ",38.052379,-78.513869,http://avlweb.charlottesville.org/RTT/Public/RoutePositionET.aspx?PlatformTag=462
464,10401,"Stadium Road Garage",38.029342,-78.513418,http://avlweb.charlottesville.org/RTT/Public/RoutePositionET.aspx?PlatformTag=464
483,10349,"Lower Hereford",38.029349,-78.519545,http://avlweb.charlottesville.org/RTT/Public/RoutePositionET.aspx?PlatformTag=483
484,10377,"Upper Hereford",38.030556,-78.519142,http://avlweb.charlottesville.org/RTT/Public/RoutePositionET.aspx?PlatformTag=484
485,10486,"OHill & Webb",38.035126,-78.514988,http://avlweb.charlottesville.org/RTT/Public/RoutePositionET.aspx?PlatformTag=485
486,10660,"Emmet St & Memorial Gym",38.038511,-78.506992,http://avlweb.charlottesville.org/RTT/Public/RoutePositionET.aspx?PlatformTag=486
487,10472,"Emmet St & Central Grounds Garage",38.036543,-78.507702,http://avlweb.charlottesville.org/RTT/Public/RoutePositionET.aspx?PlatformTag=487
488,16819,"Sth Emmet St & Ruffner Hall",38.035170,-78.508416,http://avlweb.charlottesville.org/RTT/Public/RoutePositionET.aspx?PlatformTag=488
489,10570,"Emmet St & Alumni Hall",38.038412,-78.507232,http://avlweb.charlottesville.org/RTT/Public/RoutePositionET.aspx?PlatformTag=489
490,10558,"Brown College (night stop)",38.033803,-78.507331,http://avlweb.charlottesville.org/RTT/Public/RoutePositionET.aspx?PlatformTag=490
498,16370,"Emmet Street North at Lambeth (southbound)",38.042331,-78.505632,http://avlweb.charlottesville.org/RTT/Public/RoutePositionET.aspx?PlatformTag=498
501,14817,"JPJ",38.044944,-78.506106,http://avlweb.charlottesville.org/RTT/Public/RoutePositionET.aspx?PlatformTag=501
502,14801,"Kellogg Dorm",38.033057,-78.517826,http://avlweb.charlottesville.org/RTT/Public/RoutePositionET.aspx?PlatformTag=502
