stop_id,stop_code,stop_name,stop_lat,stop_lon,stop_url
1,12973,"Hickory Street at Bitternut Lane",37.999336,-78.525860,http://avlweb.charlottesville.org/RTT/Public/RoutePositionET.aspx?PlatformTag=1
2,12939,"Hickory Street at Quest Court",37.999090,-78.524026,http://avlweb.charlottesville.org/RTT/Public/RoutePositionET.aspx?PlatformTag=2
3,15825,"Southwood Community Center",37.999086,-78.521059,http://avlweb.charlottesville.org/RTT/Public/RoutePositionET.aspx?PlatformTag=3
4,15841,"County Office Building South",38.005408,-78.519352,http://avlweb.charlottesville.org/RTT/Public/RoutePositionET.aspx?PlatformTag=4
5,12800,"PVCC at Dickinson Building",38.005175,-78.488145,http://avlweb.charlottesville.org/RTT/Public/RoutePositionET.aspx?PlatformTag=5
6,12844,"College Road leaving PVCC",38.005716,-78.480870,http://avlweb.charlottesville.org/RTT/Public/RoutePositionET.aspx?PlatformTag=6
7,12828,"College Road to PVCC",38.006008,-78.480990,http://avlweb.charlottesville.org/RTT/Public/RoutePositionET.aspx?PlatformTag=7
8,15771,"Opposite Willoughby Square Shopping Center",38.011959,-78.502650,http://avlweb.charlottesville.org/RTT/Public/RoutePositionET.aspx?PlatformTag=8
9,12925,"Willoughby Square Shopping Center",38.013533,-78.501299,http://avlweb.charlottesville.org/RTT/Public/RoutePositionET.aspx?PlatformTag=9
10,15785,"5th Street SW at Harris Road",38.014503,-78.499801,http://avlweb.charlottesville.org/RTT/Public/RoutePositionET.aspx?PlatformTag=10
11,11384,"Harris Road at JPA",38.015165,-78.510326,http://avlweb.charlottesville.org/RTT/Public/RoutePositionET.aspx?PlatformTag=11
12,11397,"Harris Road at Willard Drive",38.015800,-78.507857,http://avlweb.charlottesville.org/RTT/Public/RoutePositionET.aspx?PlatformTag=12
13,11674,"Willard Drive at Allen Drive",38.016550,-78.508113,http://avlweb.charlottesville.org/RTT/Public/RoutePositionET.aspx?PlatformTag=13
14,11402,"Willard Drive at Moseley Drive",38.018069,-78.509745,http://avlweb.charlottesville.org/RTT/Public/RoutePositionET.aspx?PlatformTag=14
15,11418,"Willard Drive at Cleveland Avenue",38.019516,-78.510555,http://avlweb.charlottesville.org/RTT/Public/RoutePositionET.aspx?PlatformTag=15
16,11425,"Cleveland Ave Opp Woodland Dr",38.020306,-78.512606,http://avlweb.charlottesville.org/RTT/Public/RoutePositionET.aspx?PlatformTag=16
17,11439,"Cleveland Avenue at JPA",38.020699,-78.514506,http://avlweb.charlottesville.org/RTT/Public/RoutePositionET.aspx?PlatformTag=17
19,11345,"JPA at Park Road",38.019650,-78.514673,http://avlweb.charlottesville.org/RTT/Public/RoutePositionET.aspx?PlatformTag=19
20,11350,"JPA at Old Lynchburg Road",38.018767,-78.513517,http://avlweb.charlottesville.org/RTT/Public/RoutePositionET.aspx?PlatformTag=20
21,11366,"JPA at Monte Vista Avenue",38.017566,-78.512694,http://avlweb.charlottesville.org/RTT/Public/RoutePositionET.aspx?PlatformTag=21
22,11378,"JPA at Azalea Drive",38.015980,-78.511450,http://avlweb.charlottesville.org/RTT/Public/RoutePositionET.aspx?PlatformTag=22
27,11210,"JPA at Maury Avenue",38.026126,-78.514559,http://avlweb.charlottesville.org/RTT/Public/RoutePositionET.aspx?PlatformTag=27
29,11206,"JPA at Observatory Avenue",38.026523,-78.513392,http://avlweb.charlottesville.org/RTT/Public/RoutePositionET.aspx?PlatformTag=29
31,11172,"JPA at Shamrock Road",38.027631,-78.511588,http://avlweb.charlottesville.org/RTT/Public/RoutePositionET.aspx?PlatformTag=31
33,11164,"JPA at Montebello Circle",38.028819,-78.509810,http://avlweb.charlottesville.org/RTT/Public/RoutePositionET.aspx?PlatformTag=33
34,11140,"JPA opposite Valley Road",38.031019,-78.508358,http://avlweb.charlottesville.org/RTT/Public/RoutePositionET.aspx?PlatformTag=34
37,10687,"Alderman Road opposite Gooch Houses",38.029072,-78.516357,http://avlweb.charlottesville.org/RTT/Public/RoutePositionET.aspx?PlatformTag=37
44,11223,"Maury Avenue at Clark Court",38.027004,-78.515808,http://avlweb.charlottesville.org/RTT/Public/RoutePositionET.aspx?PlatformTag=44
47,11234,"Alderman Road at Whitehead Road",38.033825,-78.514094,http://avlweb.charlottesville.org/RTT/Public/RoutePositionET.aspx?PlatformTag=47
50,11931,"McCormick Road at Gilmer Hall",38.034809,-78.513184,http://avlweb.charlottesville.org/RTT/Public/RoutePositionET.aspx?PlatformTag=50
52,11782,"McCormick Road at Chemistry Building",38.034176,-78.511684,http://avlweb.charlottesville.org/RTT/Public/RoutePositionET.aspx?PlatformTag=52
53,11898,"McCormick Road at Thornton Hall",38.033683,-78.509262,http://avlweb.charlottesville.org/RTT/Public/RoutePositionET.aspx?PlatformTag=53
54,11920,"McCormick Road at Clark Hall",38.033732,-78.507379,http://avlweb.charlottesville.org/RTT/Public/RoutePositionET.aspx?PlatformTag=54
57,11908,"McCormick Road at UVA Chapel",38.036177,-78.504695,http://avlweb.charlottesville.org/RTT/Public/RoutePositionET.aspx?PlatformTag=57
58,11281,"University Ave at Rotunda",38.036510,-78.502843,http://avlweb.charlottesville.org/RTT/Public/RoutePositionET.aspx?PlatformTag=58
59,11252,"University Ave at Madison Hall",38.036599,-78.502789,http://avlweb.charlottesville.org/RTT/Public/RoutePositionET.aspx?PlatformTag=59
60,11275,"University Avenue opposite Elliewood Avenue",38.035204,-78.500886,http://avlweb.charlottesville.org/RTT/Public/RoutePositionET.aspx?PlatformTag=60
61,11247,"University Ave at Women's Center",38.034081,-78.499849,http://avlweb.charlottesville.org/RTT/Public/RoutePositionET.aspx?PlatformTag=61
62,10694,"University Ave at The Corner",38.034039,-78.499479,http://avlweb.charlottesville.org/RTT/Public/RoutePositionET.aspx?PlatformTag=62
63,11711,"14th Street NW at Wertland (northbound)",38.034540,-78.499283,http://avlweb.charlottesville.org/RTT/Public/RoutePositionET.aspx?PlatformTag=63
64,11724,"14th Street NW at Wertland (southbound)",38.034571,-78.499377,http://avlweb.charlottesville.org/RTT/Public/RoutePositionET.aspx?PlatformTag=64
65,11155,"JPA at Cabell Hall",38.032110,-78.505489,http://avlweb.charlottesville.org/RTT/Public/RoutePositionET.aspx?PlatformTag=65
69,11138,"West Main Street at 11th Street SW (eastbound)",38.032837,-78.496200,http://avlweb.charlottesville.org/RTT/Public/RoutePositionET.aspx?PlatformTag=69
70,11129,"West Main Street at 11th Street NW (westbound)",38.032892,-78.495745,http://avlweb.charlottesville.org/RTT/Public/RoutePositionET.aspx?PlatformTag=70
73,11186,"West Main Street opposite 9th Street SW",38.032351,-78.493327,http://avlweb.charlottesville.org/RTT/Public/RoutePositionET.aspx?PlatformTag=73
74,11117,"West Main Street at 9th Street SW",38.032168,-78.493081,http://avlweb.charlottesville.org/RTT/Public/RoutePositionET.aspx?PlatformTag=74
75,11101,"West Main Street at 8th Street SW (eastbound)",38.031760,-78.491304,http://avlweb.charlottesville.org/RTT/Public/RoutePositionET.aspx?PlatformTag=75
76,11091,"West Main Street at 8th Street NW (westbound)",38.031695,-78.490572,http://avlweb.charlottesville.org/RTT/Public/RoutePositionET.aspx?PlatformTag=76
77,11070,"West Main Street at 6th Street NW (westbound)",38.031218,-78.488571,http://avlweb.charlottesville.org/RTT/Public/RoutePositionET.aspx?PlatformTag=77
78,11089,"West Main Street at 6th Street SW (eastbound)",38.031123,-78.488705,http://avlweb.charlottesville.org/RTT/Public/RoutePositionET.aspx?PlatformTag=78
79,11058,"West Main Street opposite 5th St SW",38.030869,-78.487244,http://avlweb.charlottesville.org/RTT/Public/RoutePositionET.aspx?PlatformTag=79
80,11062,"West Main Street at 4th Street NW",38.030628,-78.486801,http://avlweb.charlottesville.org/RTT/Public/RoutePositionET.aspx?PlatformTag=80
81,15818,"Ridge Street at Dice Street (northbound)",38.028071,-78.486317,http://avlweb.charlottesville.org/RTT/Public/RoutePositionET.aspx?PlatformTag=81
82,12994,"Ridge Street at Dice Street (southbound)",38.028071,-78.486450,http://avlweb.charlottesville.org/RTT/Public/RoutePositionET.aspx?PlatformTag=82
83,15802,"Ridge St at Elliott Ave",38.026025,-78.488428,http://avlweb.charlottesville.org/RTT/Public/RoutePositionET.aspx?PlatformTag=83
84,12987,"Ridge Street at Cherry Avenue",38.026060,-78.488564,http://avlweb.charlottesville.org/RTT/Public/RoutePositionET.aspx?PlatformTag=84
85,12113,"Cherry Avenue at 6th Street SW",38.027017,-78.490670,http://avlweb.charlottesville.org/RTT/Public/RoutePositionET.aspx?PlatformTag=85
86,15894,"Cherry Avenue at 6th Street SW",38.027377,-78.491004,http://avlweb.charlottesville.org/RTT/Public/RoutePositionET.aspx?PlatformTag=86
87,15904,"Cherry Avenue at Independence Resource Center",38.028702,-78.493858,http://avlweb.charlottesville.org/RTT/Public/RoutePositionET.aspx?PlatformTag=87
88,11585,"Cherry Ave at Shopping Ctr",38.028682,-78.494161,http://avlweb.charlottesville.org/RTT/Public/RoutePositionET.aspx?PlatformTag=88
89,14552,"Cherry Ave & 9th St Sw",38.028690,-78.495480,http://avlweb.charlottesville.org/RTT/Public/RoutePositionET.aspx?PlatformTag=89
90,14547,"Cherry Avenue at 10th Street SW",38.028455,-78.496840,http://avlweb.charlottesville.org/RTT/Public/RoutePositionET.aspx?PlatformTag=90
91,14534,"Cherry Avenue at Hanover Street (eastbound)",38.025988,-78.500875,http://avlweb.charlottesville.org/RTT/Public/RoutePositionET.aspx?PlatformTag=91
92,14523,"Rock Creek Road at Cherry Avenue",38.024343,-78.502744,http://avlweb.charlottesville.org/RTT/Public/RoutePositionET.aspx?PlatformTag=92
93,14356,"Rock Creek Road at Briarcliff Avenue",38.022931,-78.500525,http://avlweb.charlottesville.org/RTT/Public/RoutePositionET.aspx?PlatformTag=93
94,14360,"Forest Ridge Road at Rockcreek Road",38.023186,-78.498670,http://avlweb.charlottesville.org/RTT/Public/RoutePositionET.aspx?PlatformTag=94
95,14409,"Forest Ridge Road at Briarcliff Avenue",38.024523,-78.498549,http://avlweb.charlottesville.org/RTT/Public/RoutePositionET.aspx?PlatformTag=95
96,13254,"Forest Hills Avenue at 9th Street SW",38.025329,-78.495459,http://avlweb.charlottesville.org/RTT/Public/RoutePositionET.aspx?PlatformTag=96
97,11571,"Blue Ridge Commons",38.023937,-78.494813,http://avlweb.charlottesville.org/RTT/Public/RoutePositionET.aspx?PlatformTag=97
98,11563,"Bailey Road at Prospect Avenue",38.021346,-78.496629,http://avlweb.charlottesville.org/RTT/Public/RoutePositionET.aspx?PlatformTag=98
99,11559,"Bailey Road at 5th Street SW",38.020839,-78.494915,http://avlweb.charlottesville.org/RTT/Public/RoutePositionET.aspx?PlatformTag=99
101,15792,"5th Street SW at Bailey Road (northbound)",38.020461,-78.494500,http://avlweb.charlottesville.org/RTT/Public/RoutePositionET.aspx?PlatformTag=101
102,12956,"5th Street SW at Bailey Road (southbound)",38.020432,-78.494894,http://avlweb.charlottesville.org/RTT/Public/RoutePositionET.aspx?PlatformTag=102
103,14076,"Ridge St at Brookwood Dr",38.019445,-78.493882,http://avlweb.charlottesville.org/RTT/Public/RoutePositionET.aspx?PlatformTag=103
104,14048,"Ridge Street at Raymond Road (southbound)",38.020360,-78.493174,http://avlweb.charlottesville.org/RTT/Public/RoutePositionET.aspx?PlatformTag=104
105,14082,"Ridge Street at Raymond Road (northbound)",38.021157,-78.492346,http://avlweb.charlottesville.org/RTT/Public/RoutePositionET.aspx?PlatformTag=105
106,14007,"Ridge St at Hartman's Mill Rd",38.022345,-78.491550,http://avlweb.charlottesville.org/RTT/Public/RoutePositionET.aspx?PlatformTag=106
107,14011,"Ridge and Lankford",38.023600,-78.490407,http://avlweb.charlottesville.org/RTT/Public/RoutePositionET.aspx?PlatformTag=107
108,14263,"Lankford Ave at Ridge St",38.023062,-78.489709,http://avlweb.charlottesville.org/RTT/Public/RoutePositionET.aspx?PlatformTag=108
109,14216,"Ridge St at Barksdale St",38.024323,-78.489883,http://avlweb.charlottesville.org/RTT/Public/RoutePositionET.aspx?PlatformTag=109
111,14318,"1st Street South at Lankford Avenue",38.021653,-78.486689,http://avlweb.charlottesville.org/RTT/Public/RoutePositionET.aspx?PlatformTag=111
113,12081,"Elliott Avenue at Burnet Street",38.024651,-78.487586,http://avlweb.charlottesville.org/RTT/Public/RoutePositionET.aspx?PlatformTag=113
114,12068,"Elliott Avenue at 1st Street S (eastbound)",38.023361,-78.485852,http://avlweb.charlottesville.org/RTT/Public/RoutePositionET.aspx?PlatformTag=114
115,14292,"1st Street South at Elliott Avenue",38.023518,-78.485656,http://avlweb.charlottesville.org/RTT/Public/RoutePositionET.aspx?PlatformTag=115
116,11544,"Elliott Avenue at 1st Street SE (westbound)",38.023351,-78.485581,http://avlweb.charlottesville.org/RTT/Public/RoutePositionET.aspx?PlatformTag=116
117,14069,"1st Street South at Oakwood Cemetery",38.025796,-78.484407,http://avlweb.charlottesville.org/RTT/Public/RoutePositionET.aspx?PlatformTag=117
118,11642,"Elliott Avenue at 6th Street SE (westbound)",38.022096,-78.483112,http://avlweb.charlottesville.org/RTT/Public/RoutePositionET.aspx?PlatformTag=118
119,12099,"Elliott Avenue at 6th Street SE (eastbound)",38.021993,-78.483127,http://avlweb.charlottesville.org/RTT/Public/RoutePositionET.aspx?PlatformTag=119
120,15927,"Druid Ave at Avon St",38.019741,-78.482403,http://avlweb.charlottesville.org/RTT/Public/RoutePositionET.aspx?PlatformTag=120
121,15887,"Belmont Park",38.018371,-78.481687,http://avlweb.charlottesville.org/RTT/Public/RoutePositionET.aspx?PlatformTag=121
122,16045,"Avon Street at Elliott Avenue (northbound)",38.021164,-78.481393,http://avlweb.charlottesville.org/RTT/Public/RoutePositionET.aspx?PlatformTag=122
123,11537,"Avon Street at Elliott Avenue (southbound)",38.021648,-78.481209,http://avlweb.charlottesville.org/RTT/Public/RoutePositionET.aspx?PlatformTag=123
124,12052,"Avon Street at Montrose Avenue",38.021884,-78.480870,http://avlweb.charlottesville.org/RTT/Public/RoutePositionET.aspx?PlatformTag=124
125,12047,"Avon Street at Blenheim Avenue (northbound)",38.022939,-78.480119,http://avlweb.charlottesville.org/RTT/Public/RoutePositionET.aspx?PlatformTag=125
126,11626,"Avon Street at Blenheim Avenue (southbound)",38.022962,-78.480224,http://avlweb.charlottesville.org/RTT/Public/RoutePositionET.aspx?PlatformTag=126
127,12533,"Montrose Avenue at Rialto Street",38.021322,-78.479382,http://avlweb.charlottesville.org/RTT/Public/RoutePositionET.aspx?PlatformTag=127
128,12859,"Montrose Avenue at Rialto Street",38.021398,-78.479239,http://avlweb.charlottesville.org/RTT/Public/RoutePositionET.aspx?PlatformTag=128
129,15873,"Altavista Ave at Rialto St",38.019788,-78.480267,http://avlweb.charlottesville.org/RTT/Public/RoutePositionET.aspx?PlatformTag=129
130,15860,"1001 Altavista Ave",38.018339,-78.477119,http://avlweb.charlottesville.org/RTT/Public/RoutePositionET.aspx?PlatformTag=130
131,15962,"Altavista Ave at Monticello Ave",38.017773,-78.475912,http://avlweb.charlottesville.org/RTT/Public/RoutePositionET.aspx?PlatformTag=131
132,15856,"Monticello Road at Druid Avenue",38.015650,-78.473377,http://avlweb.charlottesville.org/RTT/Public/RoutePositionET.aspx?PlatformTag=132
133,15700,"Monticello Rd at Altavista Ave",38.016699,-78.473469,http://avlweb.charlottesville.org/RTT/Public/RoutePositionET.aspx?PlatformTag=133
134,12816,"Monticello Avenue at Elliott Avenue (northbound)",38.018513,-78.474905,http://avlweb.charlottesville.org/RTT/Public/RoutePositionET.aspx?PlatformTag=134
135,12676,"Monticello Avenue at Elliott Avenue (southbound)",38.018586,-78.475043,http://avlweb.charlottesville.org/RTT/Public/RoutePositionET.aspx?PlatformTag=135
136,15697,"Monticello Rd at Montrose Ave",38.018638,-78.472977,http://avlweb.charlottesville.org/RTT/Public/RoutePositionET.aspx?PlatformTag=136
137,15716,"Nassau St at Hampton St",38.018671,-78.467447,http://avlweb.charlottesville.org/RTT/Public/RoutePositionET.aspx?PlatformTag=137
138,15728,"Calton Ave at Nassau St Sunrise Trailer Court",38.020916,-78.466297,http://avlweb.charlottesville.org/RTT/Public/RoutePositionET.aspx?PlatformTag=138
139,15737,"Carlton Ave at Carlton Rd",38.022716,-78.470164,http://avlweb.charlottesville.org/RTT/Public/RoutePositionET.aspx?PlatformTag=139
140,15943,"Carlton Rd at Hampton St",38.020693,-78.471299,http://avlweb.charlottesville.org/RTT/Public/RoutePositionET.aspx?PlatformTag=140
141,15684,"Carlton Rd at Monticello Rd",38.020462,-78.472961,http://avlweb.charlottesville.org/RTT/Public/RoutePositionET.aspx?PlatformTag=141
142,12505,"Monticello Avenue at Castalia Street",38.021667,-78.474427,http://avlweb.charlottesville.org/RTT/Public/RoutePositionET.aspx?PlatformTag=142
143,12431,"Monticello Avenue at Tufton Avenue",38.021828,-78.474333,http://avlweb.charlottesville.org/RTT/Public/RoutePositionET.aspx?PlatformTag=143
145,12477,"Monticello Avenue at Meridian Street (northbound)",38.023041,-78.476123,http://avlweb.charlottesville.org/RTT/Public/RoutePositionET.aspx?PlatformTag=145
146,12522,"Monticello Avenue at Meridian Street (southbound)",38.022882,-78.476112,http://avlweb.charlottesville.org/RTT/Public/RoutePositionET.aspx?PlatformTag=146
147,12386,"Rialto Street at Monticello Avenue",38.023516,-78.477551,http://avlweb.charlottesville.org/RTT/Public/RoutePositionET.aspx?PlatformTag=147
148,12607,"Rialto Street at Blenheim Avenue (southbound)",38.021981,-78.478691,http://avlweb.charlottesville.org/RTT/Public/RoutePositionET.aspx?PlatformTag=148
149,12408,"Rialto Street at Blenheim Avenue (northbound)",38.022146,-78.478686,http://avlweb.charlottesville.org/RTT/Public/RoutePositionET.aspx?PlatformTag=149
150,12034,"Avon Street at Bolling Avenue (northbound)",38.023676,-78.479547,http://avlweb.charlottesville.org/RTT/Public/RoutePositionET.aspx?PlatformTag=150
151,11528,"Avon Street at Bolling Avenue (southbound)",38.023699,-78.479697,http://avlweb.charlottesville.org/RTT/Public/RoutePositionET.aspx?PlatformTag=151
152,14228,"Monticello Avenue at 6th Street SE",38.025237,-78.480919,http://avlweb.charlottesville.org/RTT/Public/RoutePositionET.aspx?PlatformTag=152
153,14237,"Monticello Avenue at 2nd Street SE",38.026604,-78.482111,http://avlweb.charlottesville.org/RTT/Public/RoutePositionET.aspx?PlatformTag=153
157,12075,"Avon Street at Fox's Cafe",38.026156,-78.477848,http://avlweb.charlottesville.org/RTT/Public/RoutePositionET.aspx?PlatformTag=157
158,11500,"Avon St at Garrett St",38.026404,-78.477922,http://avlweb.charlottesville.org/RTT/Public/RoutePositionET.aspx?PlatformTag=158
159,11516,"Avon Street at Belmont Avenue (southbound)",38.025226,-78.478613,http://avlweb.charlottesville.org/RTT/Public/RoutePositionET.aspx?PlatformTag=159
160,12010,"Avon Street at Belmont Avenue (northbound)",38.025037,-78.478549,http://avlweb.charlottesville.org/RTT/Public/RoutePositionET.aspx?PlatformTag=160
161,15763,"Hinton Avenue at Rialto Street",38.025168,-78.476607,http://avlweb.charlottesville.org/RTT/Public/RoutePositionET.aspx?PlatformTag=161
162,12393,"Rialto Street at Bolling Avenue",38.022769,-78.478111,http://avlweb.charlottesville.org/RTT/Public/RoutePositionET.aspx?PlatformTag=162
163,15759,"Hinton Ave at Meridian St",38.024350,-78.474950,http://avlweb.charlottesville.org/RTT/Public/RoutePositionET.aspx?PlatformTag=163
164,15744,"Bainbridge St at Carlton Ave",38.023452,-78.471864,http://avlweb.charlottesville.org/RTT/Public/RoutePositionET.aspx?PlatformTag=164
166,13951,"South Pantops Drive at State Farm",38.024535,-78.448228,http://avlweb.charlottesville.org/RTT/Public/RoutePositionET.aspx?PlatformTag=166
167,13876,"State Farm Boulevard at Martha Jefferson Drive",38.025409,-78.444985,http://avlweb.charlottesville.org/RTT/Public/RoutePositionET.aspx?PlatformTag=167
168,13797,"State Farm Boulevard at Hickman Road",38.027554,-78.442671,http://avlweb.charlottesville.org/RTT/Public/RoutePositionET.aspx?PlatformTag=168
169,13784,"Abbey Road at Division of Motor Vehicles",38.028559,-78.442794,http://avlweb.charlottesville.org/RTT/Public/RoutePositionET.aspx?PlatformTag=169
172,13946,"South Pantops Drive at Beverley Way",38.028021,-78.449750,http://avlweb.charlottesville.org/RTT/Public/RoutePositionET.aspx?PlatformTag=172
173,14151,"South Pantops Drive at Riverbend Drive",38.031344,-78.454524,http://avlweb.charlottesville.org/RTT/Public/RoutePositionET.aspx?PlatformTag=173
175,14095,"Pantops Shopping Center at Food Lion",38.031347,-78.457236,http://avlweb.charlottesville.org/RTT/Public/RoutePositionET.aspx?PlatformTag=175
180,13709,"East High Street at Riverdale Drive",38.034092,-78.460227,http://avlweb.charlottesville.org/RTT/Public/RoutePositionET.aspx?PlatformTag=180
181,14285,"East High Street at Hazel Street",38.032898,-78.462635,http://avlweb.charlottesville.org/RTT/Public/RoutePositionET.aspx?PlatformTag=181
182,13692,"East High Street at Stewart Street (eastbound)",38.032074,-78.464378,http://avlweb.charlottesville.org/RTT/Public/RoutePositionET.aspx?PlatformTag=182
183,14167,"East High Street at Stewart Street (westbound)",38.031951,-78.465336,http://avlweb.charlottesville.org/RTT/Public/RoutePositionET.aspx?PlatformTag=183
184,12465,"Fairway Avenue at Meade Avenue",38.030177,-78.464796,http://avlweb.charlottesville.org/RTT/Public/RoutePositionET.aspx?PlatformTag=184
185,12648,"Fairway Avenue at Arbor Circle",38.029074,-78.463504,http://avlweb.charlottesville.org/RTT/Public/RoutePositionET.aspx?PlatformTag=185
186,12624,"Fairway Avenue at Short 18th Street",38.026730,-78.462421,http://avlweb.charlottesville.org/RTT/Public/RoutePositionET.aspx?PlatformTag=186
187,12420,"Chesapeake Street at 18th Street NE",38.025243,-78.461220,http://avlweb.charlottesville.org/RTT/Public/RoutePositionET.aspx?PlatformTag=187
188,12412,"Chesapeake Street at Riverview Avenue",38.024228,-78.458717,http://avlweb.charlottesville.org/RTT/Public/RoutePositionET.aspx?PlatformTag=188
189,12454,"Chesapeake Street at Riverside Avenue",38.023201,-78.456255,http://avlweb.charlottesville.org/RTT/Public/RoutePositionET.aspx?PlatformTag=189
190,12449,"East Market Street at Riverside Avenue",38.022051,-78.456907,http://avlweb.charlottesville.org/RTT/Public/RoutePositionET.aspx?PlatformTag=190
191,12496,"East Market Street at Riverview Avenue",38.023378,-78.460131,http://avlweb.charlottesville.org/RTT/Public/RoutePositionET.aspx?PlatformTag=191
192,12372,"East Market Street at Franklin Street",38.023886,-78.461421,http://avlweb.charlottesville.org/RTT/Public/RoutePositionET.aspx?PlatformTag=192
193,12580,"East Market Street at 18th Street NE",38.024330,-78.462451,http://avlweb.charlottesville.org/RTT/Public/RoutePositionET.aspx?PlatformTag=193
194,12598,"East Market Street at Leake Lane",38.024897,-78.463877,http://avlweb.charlottesville.org/RTT/Public/RoutePositionET.aspx?PlatformTag=194
195,16107,"East Market Street at Burgess Lane",38.025391,-78.465100,http://avlweb.charlottesville.org/RTT/Public/RoutePositionET.aspx?PlatformTag=195
196,12364,"East Market Street at Meade Avenue",38.026012,-78.466663,http://avlweb.charlottesville.org/RTT/Public/RoutePositionET.aspx?PlatformTag=196
197,12567,"East Market Street at Carlton Road",38.026933,-78.468900,http://avlweb.charlottesville.org/RTT/Public/RoutePositionET.aspx?PlatformTag=197
198,12579,"East Market Street at 12th Street NE",38.027457,-78.470221,http://avlweb.charlottesville.org/RTT/Public/RoutePositionET.aspx?PlatformTag=198
199,12551,"East Market Street at 11th Street NE",38.028295,-78.472242,http://avlweb.charlottesville.org/RTT/Public/RoutePositionET.aspx?PlatformTag=199
200,12546,"East Market Street at 10th Street NE",38.028714,-78.473234,http://avlweb.charlottesville.org/RTT/Public/RoutePositionET.aspx?PlatformTag=200
201,11321,"10th Street NE at Water Street",38.028639,-78.473722,http://avlweb.charlottesville.org/RTT/Public/RoutePositionET.aspx?PlatformTag=201
202,11332,"East Water St at 9th St Ne",38.028647,-78.475473,http://avlweb.charlottesville.org/RTT/Public/RoutePositionET.aspx?PlatformTag=202
204,11015,"East Water St at 3rd St Se",38.029557,-78.480143,http://avlweb.charlottesville.org/RTT/Public/RoutePositionET.aspx?PlatformTag=204
206,11036,"West Water St at Omni",38.030839,-78.483962,http://avlweb.charlottesville.org/RTT/Public/RoutePositionET.aspx?PlatformTag=206
207,11043,"Ridge McIntire Rd at Omni",38.031635,-78.484868,http://avlweb.charlottesville.org/RTT/Public/RoutePositionET.aspx?PlatformTag=207
208,11494,"West Market St at Old Preston",38.032708,-78.483368,http://avlweb.charlottesville.org/RTT/Public/RoutePositionET.aspx?PlatformTag=208
209,11299,"East Market St at 2nd St Ne",38.031293,-78.480547,http://avlweb.charlottesville.org/RTT/Public/RoutePositionET.aspx?PlatformTag=209
210,11313,"East Market St at 5th St Ne",38.030482,-78.477956,http://avlweb.charlottesville.org/RTT/Public/RoutePositionET.aspx?PlatformTag=210
211,11309,"East Market St at 8th St Ne",38.029970,-78.476372,http://avlweb.charlottesville.org/RTT/Public/RoutePositionET.aspx?PlatformTag=211
212,12669,"7th Street NE opposite SNL Plaza",38.030267,-78.476650,http://avlweb.charlottesville.org/RTT/Public/RoutePositionET.aspx?PlatformTag=212
213,12355,"7th Street NE at East Jefferson Street",38.031270,-78.476166,http://avlweb.charlottesville.org/RTT/Public/RoutePositionET.aspx?PlatformTag=213
214,12653,"East High Street at Tarleton Apartments",38.031616,-78.475631,http://avlweb.charlottesville.org/RTT/Public/RoutePositionET.aspx?PlatformTag=214
215,12514,"East High Street at 8th Street NE",38.031330,-78.474785,http://avlweb.charlottesville.org/RTT/Public/RoutePositionET.aspx?PlatformTag=215
216,12023,"11th Street NE at East Jefferson Street",38.029592,-78.471865,http://avlweb.charlottesville.org/RTT/Public/RoutePositionET.aspx?PlatformTag=216
217,16512,"East High Street at 9 1/2 Street NE",38.031490,-78.472738,http://avlweb.charlottesville.org/RTT/Public/RoutePositionET.aspx?PlatformTag=217
218,16475,"East High Street at Locust Avenue",38.031651,-78.472350,http://avlweb.charlottesville.org/RTT/Public/RoutePositionET.aspx?PlatformTag=218
219,13685,"East High Street at Grove Avenue (westbound)",38.031907,-78.469487,http://avlweb.charlottesville.org/RTT/Public/RoutePositionET.aspx?PlatformTag=219
220,13721,"East High Street at Grove Avenue (eastbound)",38.031798,-78.469365,http://avlweb.charlottesville.org/RTT/Public/RoutePositionET.aspx?PlatformTag=220
221,12340,"Little High Street at 11th Street NE",38.030379,-78.469833,http://avlweb.charlottesville.org/RTT/Public/RoutePositionET.aspx?PlatformTag=221
222,12611,"12th Street NE at Little High Street",38.029711,-78.467925,http://avlweb.charlottesville.org/RTT/Public/RoutePositionET.aspx?PlatformTag=222
224,12483,"Meade Avenue at Caroline Avenue",38.029142,-78.465700,http://avlweb.charlottesville.org/RTT/Public/RoutePositionET.aspx?PlatformTag=224
226,12761,"Locust Avenue at Sycamore Street",38.032960,-78.470533,http://avlweb.charlottesville.org/RTT/Public/RoutePositionET.aspx?PlatformTag=226
228,12774,"Locust Avenue at Hazel Street",38.035484,-78.468795,http://avlweb.charlottesville.org/RTT/Public/RoutePositionET.aspx?PlatformTag=228
229,12695,"Locust Avenue at 250 Bypass",38.037677,-78.466757,http://avlweb.charlottesville.org/RTT/Public/RoutePositionET.aspx?PlatformTag=229
230,12682,"Long Street at Locust Avenue",38.038338,-78.465600,http://avlweb.charlottesville.org/RTT/Public/RoutePositionET.aspx?PlatformTag=230
231,12837,"St Clair Ave at Long St",38.037368,-78.464156,http://avlweb.charlottesville.org/RTT/Public/RoutePositionET.aspx?PlatformTag=231
232,12892,"St Clair Ave at River Vista Ave",38.038363,-78.462989,http://avlweb.charlottesville.org/RTT/Public/RoutePositionET.aspx?PlatformTag=232
233,12941,"St Clair Ave at Calhoun St",38.039341,-78.461793,http://avlweb.charlottesville.org/RTT/Public/RoutePositionET.aspx?PlatformTag=233
234,12788,"St Clair Ave at Smith St",38.041665,-78.459025,http://avlweb.charlottesville.org/RTT/Public/RoutePositionET.aspx?PlatformTag=234
235,12960,"Peartree Lane at Saint Clair Avenue",38.042252,-78.458403,http://avlweb.charlottesville.org/RTT/Public/RoutePositionET.aspx?PlatformTag=235
237,12918,"Calhoun Street at Locust Avenue",38.040490,-78.463522,http://avlweb.charlottesville.org/RTT/Public/RoutePositionET.aspx?PlatformTag=237
238,12902,"Sheridan Ave at Calhoun St",38.042069,-78.465206,http://avlweb.charlottesville.org/RTT/Public/RoutePositionET.aspx?PlatformTag=238
239,12885,"North Ave at Holmes Ave",38.042761,-78.464982,http://avlweb.charlottesville.org/RTT/Public/RoutePositionET.aspx?PlatformTag=239
240,12726,"North Ave at Cottonwood Rd",38.042917,-78.467125,http://avlweb.charlottesville.org/RTT/Public/RoutePositionET.aspx?PlatformTag=240
241,12871,"North Avenue at Park Street",38.043752,-78.469728,http://avlweb.charlottesville.org/RTT/Public/RoutePositionET.aspx?PlatformTag=241
242,12757,"Park St at Davis Ave",38.041915,-78.470634,http://avlweb.charlottesville.org/RTT/Public/RoutePositionET.aspx?PlatformTag=242
243,12863,"Park St at Lyons Ave",38.039593,-78.473137,http://avlweb.charlottesville.org/RTT/Public/RoutePositionET.aspx?PlatformTag=243
244,14302,"Preston Ave at 4th St",38.034454,-78.484680,http://avlweb.charlottesville.org/RTT/Public/RoutePositionET.aspx?PlatformTag=244
245,14244,"Preston Avenue at Harris Street (westbound)",38.035047,-78.485370,http://avlweb.charlottesville.org/RTT/Public/RoutePositionET.aspx?PlatformTag=245
246,14325,"Preston Avenue at Harris Street (eastbound)",38.035171,-78.486057,http://avlweb.charlottesville.org/RTT/Public/RoutePositionET.aspx?PlatformTag=246
247,13001,"Preston Ave at Forest St",38.036775,-78.487931,http://avlweb.charlottesville.org/RTT/Public/RoutePositionET.aspx?PlatformTag=247
248,14271,"Preston Ave at Region 10",38.036785,-78.488420,http://avlweb.charlottesville.org/RTT/Public/RoutePositionET.aspx?PlatformTag=248
249,13979,"Rose Hill Drive at Dale Avenue (northbound)",38.037500,-78.487996,http://avlweb.charlottesville.org/RTT/Public/RoutePositionET.aspx?PlatformTag=249
250,13824,"Rose Hill Drive at Dale Avenue (southbound)",38.037551,-78.488183,http://avlweb.charlottesville.org/RTT/Public/RoutePositionET.aspx?PlatformTag=250
251,13713,"Preston Avenue at Preston Plaza",38.037824,-78.489279,http://avlweb.charlottesville.org/RTT/Public/RoutePositionET.aspx?PlatformTag=251
252,13807,"Rose Hill Drive at Henry Avenue (northbound)",38.038849,-78.486513,http://avlweb.charlottesville.org/RTT/Public/RoutePositionET.aspx?PlatformTag=252
253,13811,"Rose Hill Drive at Henry Avenue (southbound)",38.039161,-78.486475,http://avlweb.charlottesville.org/RTT/Public/RoutePositionET.aspx?PlatformTag=253
254,13980,"Rose Hill Drive at Madison Avenue",38.041276,-78.484021,http://avlweb.charlottesville.org/RTT/Public/RoutePositionET.aspx?PlatformTag=254
255,13967,"Rose Hill Drive at Amherst Street (northbound)",38.042770,-78.483920,http://avlweb.charlottesville.org/RTT/Public/RoutePositionET.aspx?PlatformTag=255
256,13882,"Rose Hill Drive at Amherst Street (southbound)",38.042759,-78.484104,http://avlweb.charlottesville.org/RTT/Public/RoutePositionET.aspx?PlatformTag=256
257,13848,"Rose Hill Drive at Westwood Road (northbound)",38.044176,-78.483827,http://avlweb.charlottesville.org/RTT/Public/RoutePositionET.aspx?PlatformTag=257
258,13830,"Rose Hill Drive at Westwood Road (southbound)",38.044240,-78.483997,http://avlweb.charlottesville.org/RTT/Public/RoutePositionET.aspx?PlatformTag=258
259,13869,"Rose Hill Drive at Rugby Avenue",38.045150,-78.483653,http://avlweb.charlottesville.org/RTT/Public/RoutePositionET.aspx?PlatformTag=259
260,13853,"Rose Hill Drive at Oxford Road",38.046796,-78.483374,http://avlweb.charlottesville.org/RTT/Public/RoutePositionET.aspx?PlatformTag=260
261,13922,"Rose Hill Drive at Greenleaf Park",38.050180,-78.483035,http://avlweb.charlottesville.org/RTT/Public/RoutePositionET.aspx?PlatformTag=261
262,13933,"Del Mar Drive at Oakleaf Lane",38.051064,-78.484497,http://avlweb.charlottesville.org/RTT/Public/RoutePositionET.aspx?PlatformTag=262
263,13750,"Wellford Street at Bruce Avenue",38.049244,-78.485785,http://avlweb.charlottesville.org/RTT/Public/RoutePositionET.aspx?PlatformTag=263
264,13732,"Wellford Street at Cambridge Circle",38.048468,-78.486781,http://avlweb.charlottesville.org/RTT/Public/RoutePositionET.aspx?PlatformTag=264
265,13766,"Wellford Street at Oxford Road",38.047400,-78.486876,http://avlweb.charlottesville.org/RTT/Public/RoutePositionET.aspx?PlatformTag=265
266,16130,"9th Street NW at West Street",38.036261,-78.489972,http://avlweb.charlottesville.org/RTT/Public/RoutePositionET.aspx?PlatformTag=266
268,16111,"9th Street NW at Anderson Street",38.035490,-78.490826,http://avlweb.charlottesville.org/RTT/Public/RoutePositionET.aspx?PlatformTag=268
270,15989,"10th Street NW at Anderson Street",38.036621,-78.492709,http://avlweb.charlottesville.org/RTT/Public/RoutePositionET.aspx?PlatformTag=270
271,16066,"10th St Nw & West St",38.037358,-78.492324,http://avlweb.charlottesville.org/RTT/Public/RoutePositionET.aspx?PlatformTag=271
273,13998,"10th Street NW at Grady Avenue",38.038113,-78.491922,http://avlweb.charlottesville.org/RTT/Public/RoutePositionET.aspx?PlatformTag=273
274,14133,"Preston Ave at Washington Park",38.039693,-78.491554,http://avlweb.charlottesville.org/RTT/Public/RoutePositionET.aspx?PlatformTag=274
275,14339,"Preston Avenue at 10th Street NW",38.039592,-78.491634,http://avlweb.charlottesville.org/RTT/Public/RoutePositionET.aspx?PlatformTag=275
276,14024,"Preston Avenue at Madison Avenue (northbound)",38.041671,-78.492091,http://avlweb.charlottesville.org/RTT/Public/RoutePositionET.aspx?PlatformTag=276
277,11833,"Preston Avenue at Madison Avenue (southbound)",38.041475,-78.492237,http://avlweb.charlottesville.org/RTT/Public/RoutePositionET.aspx?PlatformTag=277
279,15219,"Preston Avenue at Cabell Avenue (northbound)",38.043580,-78.492830,http://avlweb.charlottesville.org/RTT/Public/RoutePositionET.aspx?PlatformTag=279
280,11730,"14th Street NW at John Street",38.037284,-78.497828,http://avlweb.charlottesville.org/RTT/Public/RoutePositionET.aspx?PlatformTag=280
281,11822,"14th Street NW at Virginia Avenue",38.037573,-78.497789,http://avlweb.charlottesville.org/RTT/Public/RoutePositionET.aspx?PlatformTag=281
282,16343,"University Avenue at Carr's Hill Field",38.039364,-78.505949,http://avlweb.charlottesville.org/RTT/Public/RoutePositionET.aspx?PlatformTag=282
283,16358,"University Ave at Snyder Tennis Courts",38.038689,-78.505740,http://avlweb.charlottesville.org/RTT/Public/RoutePositionET.aspx?PlatformTag=283
300,12178,"Millmont Street behind US Post Office",38.050993,-78.504214,http://avlweb.charlottesville.org/RTT/Public/RoutePositionET.aspx?PlatformTag=300
302,13161,"Barracks Road at Cedars Court (northbound)",38.055275,-78.501341,http://avlweb.charlottesville.org/RTT/Public/RoutePositionET.aspx?PlatformTag=302
303,14387,"Barracks Road at Cedars Court (southbound)",38.055156,-78.501502,http://avlweb.charlottesville.org/RTT/Public/RoutePositionET.aspx?PlatformTag=303
304,13220,"Barracks Road at Bennington Road",38.058559,-78.505674,http://avlweb.charlottesville.org/RTT/Public/RoutePositionET.aspx?PlatformTag=304
305,14413,"Barracks Road at Surrey Road",38.059021,-78.506593,http://avlweb.charlottesville.org/RTT/Public/RoutePositionET.aspx?PlatformTag=305
306,16148,"Barracks Pl at Barracks Rd",38.060273,-78.507177,http://avlweb.charlottesville.org/RTT/Public/RoutePositionET.aspx?PlatformTag=306
307,13142,"Georgetown Road at Georgetown Square",38.062928,-78.506505,http://avlweb.charlottesville.org/RTT/Public/RoutePositionET.aspx?PlatformTag=307
308,14421,"Georgetown Road at Hessian Hills Way",38.062609,-78.507030,http://avlweb.charlottesville.org/RTT/Public/RoutePositionET.aspx?PlatformTag=308
309,13190,"Georgetown Road at Inglewood Drive",38.065070,-78.504310,http://avlweb.charlottesville.org/RTT/Public/RoutePositionET.aspx?PlatformTag=309
310,14432,"Georgetown Road at Old Forge Road",38.066219,-78.504209,http://avlweb.charlottesville.org/RTT/Public/RoutePositionET.aspx?PlatformTag=310
311,13188,"Georgetown Road at Court Place",38.068167,-78.502408,http://avlweb.charlottesville.org/RTT/Public/RoutePositionET.aspx?PlatformTag=311
312,14654,"Georgetown Rd at Biltmore Dr",38.067930,-78.503000,http://avlweb.charlottesville.org/RTT/Public/RoutePositionET.aspx?PlatformTag=312
313,13119,"Georgetown Road at Hydraulic Road (northbound)",38.070959,-78.499344,http://avlweb.charlottesville.org/RTT/Public/RoutePositionET.aspx?PlatformTag=313
314,14450,"Georgetown Road at Hydraulic Road (southbound)",38.070675,-78.499824,http://avlweb.charlottesville.org/RTT/Public/RoutePositionET.aspx?PlatformTag=314
315,14445,"Hydraulic Road at Turtle Creek Road",38.067960,-78.496872,http://avlweb.charlottesville.org/RTT/Public/RoutePositionET.aspx?PlatformTag=315
316,13174,"Commonwealth Drive at Hydraulic Road (northbound)",38.067645,-78.495276,http://avlweb.charlottesville.org/RTT/Public/RoutePositionET.aspx?PlatformTag=316
317,14466,"Commonwealth Drive at Hydraulic Road (northbound)",38.067702,-78.495390,http://avlweb.charlottesville.org/RTT/Public/RoutePositionET.aspx?PlatformTag=317
318,13126,"Commonwealth Drive at Northwest Drive (northbound)",38.069137,-78.493608,http://avlweb.charlottesville.org/RTT/Public/RoutePositionET.aspx?PlatformTag=318
319,14478,"Commonwealth Drive at Northwest Drive (southbound)",38.069251,-78.493677,http://avlweb.charlottesville.org/RTT/Public/RoutePositionET.aspx?PlatformTag=319
320,14484,"Commonwealth Drive at Trophy Chase Apartments",38.070760,-78.491693,http://avlweb.charlottesville.org/RTT/Public/RoutePositionET.aspx?PlatformTag=320
321,13072,"Commonwealth Drive at Peyton Drive",38.071425,-78.490711,http://avlweb.charlottesville.org/RTT/Public/RoutePositionET.aspx?PlatformTag=321
322,13064,"Commonwealth Drive at Greenbrier Drive (NB)",38.072482,-78.489613,http://avlweb.charlottesville.org/RTT/Public/RoutePositionET.aspx?PlatformTag=322
323,14497,"Commonwealth Drive at Greenbrier Drive (SB)",38.072538,-78.489756,http://avlweb.charlottesville.org/RTT/Public/RoutePositionET.aspx?PlatformTag=323
324,13055,"Commonwealth Drive at Westfield Road (northbound)",38.073751,-78.485888,http://avlweb.charlottesville.org/RTT/Public/RoutePositionET.aspx?PlatformTag=324
325,14506,"Commonwealth Drive at Westfield Road (southbound)",38.073832,-78.485973,http://avlweb.charlottesville.org/RTT/Public/RoutePositionET.aspx?PlatformTag=325
326,13086,"Four Seasons Drive at Woodlake Drive (northbound)",38.077672,-78.483518,http://avlweb.charlottesville.org/RTT/Public/RoutePositionET.aspx?PlatformTag=326
327,14575,"Four Seasons Drive at Woodlake Drive (southbound)",38.078057,-78.484292,http://avlweb.charlottesville.org/RTT/Public/RoutePositionET.aspx?PlatformTag=327
328,13017,"Four Seasons Drive at ACAC",38.079665,-78.486580,http://avlweb.charlottesville.org/RTT/Public/RoutePositionET.aspx?PlatformTag=328
329,14568,"Four Seasons Drive opposite ACAC",38.079544,-78.486618,http://avlweb.charlottesville.org/RTT/Public/RoutePositionET.aspx?PlatformTag=329
330,13093,"Four Seasons Drive at Tennis Drive (nothbound)",38.082538,-78.487424,http://avlweb.charlottesville.org/RTT/Public/RoutePositionET.aspx?PlatformTag=330
331,14677,"Four Seasons Drive at Tennis Drive (southbound)",38.082551,-78.487562,http://avlweb.charlottesville.org/RTT/Public/RoutePositionET.aspx?PlatformTag=331
332,13029,"Four Seasons Drive at Lake Forest Lane",38.083860,-78.486599,http://avlweb.charlottesville.org/RTT/Public/RoutePositionET.aspx?PlatformTag=332
333,13040,"West Rio Road at Woodburn Road Northbound",38.086698,-78.482663,http://avlweb.charlottesville.org/RTT/Public/RoutePositionET.aspx?PlatformTag=333
334,14649,"West Rio Road at Woodburn Road Southbound",38.086903,-78.480049,http://avlweb.charlottesville.org/RTT/Public/RoutePositionET.aspx?PlatformTag=334
335,13310,"W Rio Rd at Berkmar Dr Northbound",38.085365,-78.477964,http://avlweb.charlottesville.org/RTT/Public/RoutePositionET.aspx?PlatformTag=335
337,13135,"W Rio Rd at the Daily Progress",38.084101,-78.476340,http://avlweb.charlottesville.org/RTT/Public/RoutePositionET.aspx?PlatformTag=337
339,13306,"W Rio Rd at Firestone Pl",38.083253,-78.475256,http://avlweb.charlottesville.org/RTT/Public/RoutePositionET.aspx?PlatformTag=339
341,13334,"Lowe's",38.089488,-78.472789,http://avlweb.charlottesville.org/RTT/Public/RoutePositionET.aspx?PlatformTag=341
342,13231,"Berkmar Drive at UVA Credit Union",38.091051,-78.473502,http://avlweb.charlottesville.org/RTT/Public/RoutePositionET.aspx?PlatformTag=342
343,14612,"Berkmar Drive at Loupe Terrace",38.091744,-78.473330,http://avlweb.charlottesville.org/RTT/Public/RoutePositionET.aspx?PlatformTag=343
344,13208,"Berkmar Drive at SPCA",38.092938,-78.472514,http://avlweb.charlottesville.org/RTT/Public/RoutePositionET.aspx?PlatformTag=344
345,13277,"Berkmar Drive at Signature Medical Spa",38.092833,-78.472328,http://avlweb.charlottesville.org/RTT/Public/RoutePositionET.aspx?PlatformTag=345
346,13323,"Albemarle Square at Northside Library (southbound)",38.081889,-78.471778,http://avlweb.charlottesville.org/RTT/Public/RoutePositionET.aspx?PlatformTag=346
347,16009,"Putt Putt Ln & Rio Rd East",38.077716,-78.470415,http://avlweb.charlottesville.org/RTT/Public/RoutePositionET.aspx?PlatformTag=347
348,16021,"Hillsdale Drive at Walden Court",38.073919,-78.470277,http://avlweb.charlottesville.org/RTT/Public/RoutePositionET.aspx?PlatformTag=348
349,16583,"Mall Drive at Royal Court",38.074806,-78.473336,http://avlweb.charlottesville.org/RTT/Public/RoutePositionET.aspx?PlatformTag=349
350,16605,"Hillsdale Drive at Mall Drive",38.074171,-78.474520,http://avlweb.charlottesville.org/RTT/Public/RoutePositionET.aspx?PlatformTag=350
351,16614,"Hillsdale Drive at JABA",38.074078,-78.476573,http://avlweb.charlottesville.org/RTT/Public/RoutePositionET.aspx?PlatformTag=351
352,16622,"Hillsdale Dr & Incarnation Dr",38.073475,-78.477700,http://avlweb.charlottesville.org/RTT/Public/RoutePositionET.aspx?PlatformTag=352
353,16633,"Hillsdale Drive at Incarnation Drive (southbound)",38.073430,-78.477492,http://avlweb.charlottesville.org/RTT/Public/RoutePositionET.aspx?PlatformTag=353
354,16651,"Hillsdale Drive at Branchlands Boulevard (SB)",38.072015,-78.479457,http://avlweb.charlottesville.org/RTT/Public/RoutePositionET.aspx?PlatformTag=354
355,16646,"Hillsdale Drive at Branchlands Boulevard (NB)",38.072082,-78.479605,http://avlweb.charlottesville.org/RTT/Public/RoutePositionET.aspx?PlatformTag=355
356,16667,"Greenbrier Drive at Hillsdale Drive (eastbound)",38.068682,-78.480583,http://avlweb.charlottesville.org/RTT/Public/RoutePositionET.aspx?PlatformTag=356
357,16577,"Greenbrier Drive at Westfield Road (westbound)",38.069387,-78.481543,http://avlweb.charlottesville.org/RTT/Public/RoutePositionET.aspx?PlatformTag=357
358,16679,"Greenbrier Drive at Westfield Road (eastbound)",38.069361,-78.481884,http://avlweb.charlottesville.org/RTT/Public/RoutePositionET.aspx?PlatformTag=358
359,16452,"Seminole Trail at Greenbrier Drive (northbound)",38.069710,-78.484436,http://avlweb.charlottesville.org/RTT/Public/RoutePositionET.aspx?PlatformTag=359
360,16565,"Seminole Trail at Greenbrier Drive (southbound)",38.069387,-78.485344,http://avlweb.charlottesville.org/RTT/Public/RoutePositionET.aspx?PlatformTag=360
361,16447,"Seminole Trl at Post Office",38.068040,-78.485937,http://avlweb.charlottesville.org/RTT/Public/RoutePositionET.aspx?PlatformTag=361
362,16434,"Seminole Court at Zan Road",38.065172,-78.486812,http://avlweb.charlottesville.org/RTT/Public/RoutePositionET.aspx?PlatformTag=362
363,16423,"Zan Road at Line Drive",38.063751,-78.487265,http://avlweb.charlottesville.org/RTT/Public/RoutePositionET.aspx?PlatformTag=363
364,16410,"India Road at Line Drive",38.062277,-78.488198,http://avlweb.charlottesville.org/RTT/Public/RoutePositionET.aspx?PlatformTag=364
365,16520,"Emmet Street North at Hydraulic Road",38.061478,-78.492359,http://avlweb.charlottesville.org/RTT/Public/RoutePositionET.aspx?PlatformTag=365
366,16554,"Emmet Street North at Angus Road (northbound)",38.058493,-78.494164,http://avlweb.charlottesville.org/RTT/Public/RoutePositionET.aspx?PlatformTag=366
367,14341,"Emmet Street North at Federal Building",38.054575,-78.497734,http://avlweb.charlottesville.org/RTT/Public/RoutePositionET.aspx?PlatformTag=367
368,14030,"Barracks Rd & Howard Dr",38.048577,-78.494123,http://avlweb.charlottesville.org/RTT/Public/RoutePositionET.aspx?PlatformTag=368
369,14180,"Barracks Road at Hessian Road",38.051685,-78.498125,http://avlweb.charlottesville.org/RTT/Public/RoutePositionET.aspx?PlatformTag=369
370,14198,"Preston Avenue at Rugby Road",38.045516,-78.493009,http://avlweb.charlottesville.org/RTT/Public/RoutePositionET.aspx?PlatformTag=370
374,14926,"College Drive at PVCC",38.007014,-78.484236,http://avlweb.charlottesville.org/RTT/Public/RoutePositionET.aspx?PlatformTag=374
375,15106,"Montrose Avenue at Avon Street",38.022073,-78.480585,http://avlweb.charlottesville.org/RTT/Public/RoutePositionET.aspx?PlatformTag=375
376,17333,"Downtown Transit Station",38.028965,-78.477501,http://avlweb.charlottesville.org/RTT/Public/RoutePositionET.aspx?PlatformTag=376
377,11846,"JPA at Woodrow St",38.031267,-78.508190,http://avlweb.charlottesville.org/RTT/Public/RoutePositionET.aspx?PlatformTag=377
378,14373,"Seminole Square Shopping Center at Marshall's",38.063828,-78.485711,http://avlweb.charlottesville.org/RTT/Public/RoutePositionET.aspx?PlatformTag=378
379,13296,"Walmart",38.097085,-78.466637,http://avlweb.charlottesville.org/RTT/Public/RoutePositionET.aspx?PlatformTag=379
381,13283,"Sam's Club",38.099941,-78.466628,http://avlweb.charlottesville.org/RTT/Public/RoutePositionET.aspx?PlatformTag=381
383,16531,"Kroger at Hydraulic Road",38.060421,-78.491677,http://avlweb.charlottesville.org/RTT/Public/RoutePositionET.aspx?PlatformTag=383
384,16406,"Kmart",38.061503,-78.490083,http://avlweb.charlottesville.org/RTT/Public/RoutePositionET.aspx?PlatformTag=384
387,15970,"10th Street NW at Page Street",38.035251,-78.493368,http://avlweb.charlottesville.org/RTT/Public/RoutePositionET.aspx?PlatformTag=387
388,12742,"Park St at Farish St",38.034642,-78.475717,http://avlweb.charlottesville.org/RTT/Public/RoutePositionET.aspx?PlatformTag=388
390,12719,"Park Street at Evergreen Avenue",38.036577,-78.475118,http://avlweb.charlottesville.org/RTT/Public/RoutePositionET.aspx?PlatformTag=390
391,12735,"Park Street at Lyons Court Lane",38.037415,-78.474749,http://avlweb.charlottesville.org/RTT/Public/RoutePositionET.aspx?PlatformTag=391
392,12703,"Locust Avenue at Smith Street",38.042578,-78.460595,http://avlweb.charlottesville.org/RTT/Public/RoutePositionET.aspx?PlatformTag=392
393,13895,"Pantops Mountain Place at Social Security Admin",38.027781,-78.438965,http://avlweb.charlottesville.org/RTT/Public/RoutePositionET.aspx?PlatformTag=393
394,13914,"Martha Jefferson Hospital",38.022844,-78.440617,http://avlweb.charlottesville.org/RTT/Public/RoutePositionET.aspx?PlatformTag=394
395,16013,"Crescent Halls",38.026734,-78.483323,http://avlweb.charlottesville.org/RTT/Public/RoutePositionET.aspx?PlatformTag=395
397,14935,"Albemarle Square Shopping Ctr at Northside Library",38.081969,-78.471526,http://avlweb.charlottesville.org/RTT/Public/RoutePositionET.aspx?PlatformTag=397
398,15110,"Rio Hill Shopping Center at Subway",38.086791,-78.472361,http://avlweb.charlottesville.org/RTT/Public/RoutePositionET.aspx?PlatformTag=398
399,15077,"Rio Hill Shopping Center at TJ Maxx",38.087063,-78.473938,http://avlweb.charlottesville.org/RTT/Public/RoutePositionET.aspx?PlatformTag=399
400,15083,"Rio Hill Shopping Center at Kroger",38.088491,-78.474113,http://avlweb.charlottesville.org/RTT/Public/RoutePositionET.aspx?PlatformTag=400
401,16596,"Fashion Square Mall",38.076676,-78.473600,http://avlweb.charlottesville.org/RTT/Public/RoutePositionET.aspx?PlatformTag=401
402,14510,"Commonwealth Drive at Commonwealth Circle",38.076524,-78.482764,http://avlweb.charlottesville.org/RTT/Public/RoutePositionET.aspx?PlatformTag=402
406,12184,"Millmont Street behind CVS",38.053365,-78.501681,http://avlweb.charlottesville.org/RTT/Public/RoutePositionET.aspx?PlatformTag=406
407,13249,"BRSC at CVS",38.052838,-78.501098,http://avlweb.charlottesville.org/RTT/Public/RoutePositionET.aspx?PlatformTag=407
408,16680,"Barracks Road Shopping Center opposite CVS",38.052681,-78.501057,http://avlweb.charlottesville.org/RTT/Public/RoutePositionET.aspx?PlatformTag=408
410,11193,"JPA at UVA Hospital",38.032500,-78.500600,http://avlweb.charlottesville.org/RTT/Public/RoutePositionET.aspx?PlatformTag=410
411,14394,"Rugby Road at Rugby Avenue",38.046719,-78.493203,http://avlweb.charlottesville.org/RTT/Public/RoutePositionET.aspx?PlatformTag=411
412,11802,"McCormick Road at Garrett Hall",38.034325,-78.506016,http://avlweb.charlottesville.org/RTT/Public/RoutePositionET.aspx?PlatformTag=412
413,11268,"University Ave at Chancellor St",38.035958,-78.501359,http://avlweb.charlottesville.org/RTT/Public/RoutePositionET.aspx?PlatformTag=413
414,15272,"Cherry Avenue at Shamrock Road (westbound)",38.023749,-78.506648,http://avlweb.charlottesville.org/RTT/Public/RoutePositionET.aspx?PlatformTag=414
415,10417,"Grady Avenue at 14th Street",38.040120,-78.496051,http://avlweb.charlottesville.org/RTT/Public/RoutePositionET.aspx?PlatformTag=415
421,16389,"Emmet Street North at Lambeth (northbound)",38.042479,-78.505846,http://avlweb.charlottesville.org/RTT/Public/RoutePositionET.aspx?PlatformTag=421
427,16701,"UVA Hospital on Lee Street",38.031727,-78.498143,http://avlweb.charlottesville.org/RTT/Public/RoutePositionET.aspx?PlatformTag=427
432,13265,"Barracks Road Shopping Center at Fedex",38.048990,-78.504350,http://avlweb.charlottesville.org/RTT/Public/RoutePositionET.aspx?PlatformTag=432
433,13157,"BRSC at McDonalds",38.048800,-78.504350,http://avlweb.charlottesville.org/RTT/Public/RoutePositionET.aspx?PlatformTag=433
448,10656,"Grady Avenue at 10 ½ Street NW (westbound)",38.038794,-78.492403,http://avlweb.charlottesville.org/RTT/Public/RoutePositionET.aspx?PlatformTag=448
466,15181,"Monticello Rd at Blenhiem Ave",38.019780,-78.473020,http://avlweb.charlottesville.org/RTT/Public/RoutePositionET.aspx?PlatformTag=466
469,15246,"5th Street Ext & Bent Creek Road (southbound)",38.009790,-78.506340,http://avlweb.charlottesville.org/RTT/Public/RoutePositionET.aspx?PlatformTag=469
470,15255,"6th Street Ext & Bent Creek Road (northbound)",38.010840,-78.504900,http://avlweb.charlottesville.org/RTT/Public/RoutePositionET.aspx?PlatformTag=470
472,17689,"Cherry Avenue at Rainier Road",38.021860,-78.509100,http://avlweb.charlottesville.org/RTT/Public/RoutePositionET.aspx?PlatformTag=472
473,18051,"Cherry Avenue at Shamrock Road (eastbound)",38.023510,-78.506830,http://avlweb.charlottesville.org/RTT/Public/RoutePositionET.aspx?PlatformTag=473
474,15286,"Shamrock Road at Trailridge Road",38.021570,-78.503770,http://avlweb.charlottesville.org/RTT/Public/RoutePositionET.aspx?PlatformTag=474
475,15335,"Shamrock Road at Trailridge Road",38.023060,-78.505510,http://avlweb.charlottesville.org/RTT/Public/RoutePositionET.aspx?PlatformTag=475
476,15363,"Village Road at Trailridge Road",38.020780,-78.504070,http://avlweb.charlottesville.org/RTT/Public/RoutePositionET.aspx?PlatformTag=476
477,15293,"Village Road at Dublin Road",38.019910,-78.502730,http://avlweb.charlottesville.org/RTT/Public/RoutePositionET.aspx?PlatformTag=477
478,15175,"Shamrock Road at Elkhorn Road",38.020520,-78.502150,http://avlweb.charlottesville.org/RTT/Public/RoutePositionET.aspx?PlatformTag=478
479,15326,"Shamrock Road at Antoinette Road",38.019210,-78.500500,http://avlweb.charlottesville.org/RTT/Public/RoutePositionET.aspx?PlatformTag=479
480,15319,"Village Road at Antoinette Road",38.018710,-78.501280,http://avlweb.charlottesville.org/RTT/Public/RoutePositionET.aspx?PlatformTag=480
481,15261,"Bainbridge St at Monticello Rd",38.023030,-78.473080,http://avlweb.charlottesville.org/RTT/Public/RoutePositionET.aspx?PlatformTag=481
482,15199,"Hampton St at Rives St",38.019190,-78.469010,http://avlweb.charlottesville.org/RTT/Public/RoutePositionET.aspx?PlatformTag=482
495,18005,"Garrett Street at Friendship Court",38.028320,-78.481410,http://avlweb.charlottesville.org/RTT/Public/RoutePositionET.aspx?PlatformTag=495
496,18014,"Garrett Street at 4th Street SE",38.027880,-78.480230,http://avlweb.charlottesville.org/RTT/Public/RoutePositionET.aspx?PlatformTag=496
498,16370,"Emmet Street North at Lambeth (southbound)",38.042331,-78.505632,http://avlweb.charlottesville.org/RTT/Public/RoutePositionET.aspx?PlatformTag=498
500,17322,"Grove Road at Charlottesville High School",38.053137,-78.476691,http://avlweb.charlottesville.org/RTT/Public/RoutePositionET.aspx?PlatformTag=500
503,15147,"Angus Road at Emmet Street N",38.059210,-78.495610,http://avlweb.charlottesville.org/RTT/Public/RoutePositionET.aspx?PlatformTag=503
504,18022,"Gentry Lane at Walker School (northbound)",38.054800,-78.484050,http://avlweb.charlottesville.org/RTT/Public/RoutePositionET.aspx?PlatformTag=504
505,18033,"Gentry Lane at Walker School (southbound)",38.054860,-78.484200,http://avlweb.charlottesville.org/RTT/Public/RoutePositionET.aspx?PlatformTag=505
506,18046,"Grady Avenue at 13th Street NW",38.039780,-78.495610,http://avlweb.charlottesville.org/RTT/Public/RoutePositionET.aspx?PlatformTag=506
517,15168,"Georgetown Road at Hessian Hills Ridge (NB)",38.061702,-78.507907,http://avlweb.charlottesville.org/RTT/Public/RoutePositionET.aspx?PlatformTag=517
518,15152,"Georgetown Road at Hessian Hills Ridge (SB)",38.061757,-78.508028,http://avlweb.charlottesville.org/RTT/Public/RoutePositionET.aspx?PlatformTag=518
519,15217,"Preston Avenue at Cabell Avenue (southbound)",38.043851,-78.493021,http://avlweb.charlottesville.org/RTT/Public/RoutePositionET.aspx?PlatformTag=519
521,15065,"Meade Avenue at Onesty Pool",38.028305,-78.466132,http://avlweb.charlottesville.org/RTT/Public/RoutePositionET.aspx?PlatformTag=521
523,17305,"2nd Street at Downtown Mall",38.030958,-78.482146,http://avlweb.charlottesville.org/RTT/Public/RoutePositionET.aspx?PlatformTag=523
524,15264,"Cherry Avenue at Highland Avenue",38.021730,-78.509583,http://avlweb.charlottesville.org/RTT/Public/RoutePositionET.aspx?PlatformTag=524
526,16362,"Emmet Street North at Rothery Road",38.041016,-78.506131,http://avlweb.charlottesville.org/RTT/Public/RoutePositionET.aspx?PlatformTag=526
527,17691,"Greenbrier Drive at Hillsdale Drive (westbound)",38.068918,-78.480374,http://avlweb.charlottesville.org/RTT/Public/RoutePositionET.aspx?PlatformTag=527
530,16549,"Emmet Street North at Angus Road (southbound)",38.058837,-78.494390,http://avlweb.charlottesville.org/RTT/Public/RoutePositionET.aspx?PlatformTag=530
531,17426,"9th Street SW at Buford Middle School",38.025743,-78.495478,http://avlweb.charlottesville.org/RTT/Public/RoutePositionET.aspx?PlatformTag=531
534,15123,"Grady Avenue at 10 ½ Street NW (eastbound)",38.038777,-78.492448,http://avlweb.charlottesville.org/RTT/Public/RoutePositionET.aspx?PlatformTag=534
535,17636,"Cherry Avenue at Hanover Street (westbound)",38.026170,-78.501150,http://avlweb.charlottesville.org/RTT/Public/RoutePositionET.aspx?PlatformTag=535
536,15049,"Grove Road at Meadowbrook Heights (eastbound)",38.055820,-78.483240,http://avlweb.charlottesville.org/RTT/Public/RoutePositionET.aspx?PlatformTag=536
537,17314,"Grove Road at Meadowbrook Heights (westbound)",38.055900,-78.483270,http://avlweb.charlottesville.org/RTT/Public/RoutePositionET.aspx?PlatformTag=537
540,17643,"Brookwood Lane at Brookwood Drive",38.018120,-78.493770,http://avlweb.charlottesville.org/RTT/Public/RoutePositionET.aspx?PlatformTag=540
542,17230,"Martha Jefferson Hospital",38.022710,-78.442639,http://avlweb.charlottesville.org/RTT/Public/RoutePositionET.aspx?PlatformTag=542
543,17248,"Peter Jefferson Parkway & Veterans Stop",38.022983,-78.436400,http://avlweb.charlottesville.org/RTT/Public/RoutePositionET.aspx?PlatformTag=543
544,17269,"State Farm Stop",38.024595,-78.448515,http://avlweb.charlottesville.org/RTT/Public/RoutePositionET.aspx?PlatformTag=544
545,17276,"Beverly Drive",38.027960,-78.449978,http://avlweb.charlottesville.org/RTT/Public/RoutePositionET.aspx?PlatformTag=545
546,18226,"Wilton Farms Shelter @ Avemore",38.038188,-78.446082,http://avlweb.charlottesville.org/RTT/Public/RoutePositionET.aspx?PlatformTag=546
547,17282,"Stoney Point Road Turnout",38.038003,-78.449679,http://avlweb.charlottesville.org/RTT/Public/RoutePositionET.aspx?PlatformTag=547
